[{"id": 1, "latitude": 35.6832085, "longitude": 139.8089447, "city": "Tokyo", "label": "Tokyo", "yr1970": 23.3, "yr1975": 26.61, "yr1980": 28.55}, {"id": 2, "latitude": 28.6082802, "longitude": 77.2008133, "city": "New_Delhi", "label": "New Delhi", "yr1970": 3.53, "yr1975": 4.43, "yr1980": 5.56}, {"id": 3, "latitude": -23.5628395, "longitude": -46.6546402, "city": "Sao_Paulo", "label": "Sao Paulo", "yr1970": 7.62, "yr1975": 9.61, "yr1980": 12.09}, {"id": 4, "latitude": 18.93013, "longitude": 72.8300934, "city": "Mumbai", "label": "Mumbai", "yr1970": 5.81, "yr1975": 7.08, "yr1980": 8.66}, {"id": 5, "latitude": 19.4319592, "longitude": -99.1331635, "city": "Mexico_City", "label": "Mexico City", "yr1970": 8.77, "yr1975": 10.69, "yr1980": 13.01}, {"id": 6, "latitude": 40.7820015, "longitude": -73.8327026, "city": "New_York", "label": "New York", "yr1970": 16.19, "yr1975": 15.88, "yr1980": 15.6}, {"id": 7, "latitude": 31.2551594, "longitude": 121.4747009, "city": "Shanghai", "label": "Shanghai", "yr1970": 6.04, "yr1975": 5.63, "yr1980": 5.97}, {"id": 8, "latitude": 22.5650902, "longitude": 88.3707809, "city": "Kolkata", "label": "Kolkata", "yr1970": 6.93, "yr1975": 7.89, "yr1980": 9.03}, {"id": 9, "latitude": 23.7132301, "longitude": 90.3995667, "city": "Dhaka", "label": "Dhaka", "yr1970": 0.0, "yr1975": 0.0, "yr1980": 0.0}, {"id": 10, "latitude": 24.9267101, "longitude": 67.0343704, "city": "Karachi", "label": "Karachi", "yr1970": 0.0, "yr1975": 3.99, "yr1980": 5.05}, {"id": 11, "latitude": -34.6085091, "longitude": -58.3734894, "city": "Buenos_Aires", "label": "Buenos Aires", "yr1970": 8.1, "yr1975": 8.74, "yr1980": 9.42}, {"id": 12, "latitude": 34.0534897, "longitude": -118.2453232, "city": "Los_Angeles", "label": "Los Angeles", "yr1970": 8.38, "yr1975": 8.93, "yr1980": 9.51}, {"id": 13, "latitude": 39.9065704, "longitude": 116.3876495, "city": "Beijing", "label": "Beijing", "yr1970": 4.43, "yr1975": 4.83, "yr1980": 5.37}, {"id": 14, "latitude": -22.9121609, "longitude": -43.1750107, "city": "Rio_de_Janeiro", "label": "Rio de Janeiro", "yr1970": 6.64, "yr1975": 7.56, "yr1980": 8.58}, {"id": 15, "latitude": 14.58743, "longitude": 120.9836807, "city": "Manila", "label": "Manila", "yr1970": 3.53, "yr1975": 5.0, "yr1980": 5.95}, {"id": 16, "latitude": 35.0763016, "longitude": 133.5659943, "city": "Osaka_Kobe", "label": "Osaka-Kobe", "yr1970": 9.41, "yr1975": 9.84, "yr1980": 9.99}, {"id": 17, "latitude": 37.0051003, "longitude": -89.1762695, "city": "Cairo", "label": "Cairo", "yr1970": 5.58, "yr1975": 6.45, "yr1980": 7.35}, {"id": 18, "latitude": 6.45471, "longitude": 3.3887601, "city": "Lagos", "label": "Lagos", "yr1970": 0.0, "yr1975": 0.0, "yr1980": 0.0}, {"id": 19, "latitude": 55.7569695, "longitude": 37.6150208, "city": "Moscow", "label": "Moscow", "yr1970": 7.11, "yr1975": 7.62, "yr1980": 8.14}, {"id": 20, "latitude": 41.0409584, "longitude": 28.9857998, "city": "Istanbul", "label": "Istanbul", "yr1970": 0.0, "yr1975": 0.0, "yr1980": 4.4}, {"id": 21, "latitude": 48.8569298, "longitude": 2.3412001, "city": "Paris", "label": "Paris", "yr1970": 8.35, "yr1975": 8.56, "yr1980": 8.67}, {"id": 22, "latitude": 37.5150185, "longitude": 127.0164719, "city": "Seoul", "label": "Seoul", "yr1970": 5.31, "yr1975": 6.81, "yr1980": 8.26}, {"id": 23, "latitude": 29.5509491, "longitude": 106.5193481, "city": "Chongqing", "label": "Chongqing", "yr1970": 0.0, "yr1975": 0.0, "yr1980": 0.0}, {"id": 24, "latitude": -6.1714902, "longitude": 106.8275223, "city": "Jakarta", "label": "Jakarta", "yr1970": 3.92, "yr1975": 4.81, "yr1980": 5.98}, {"id": 25, "latitude": 41.8842506, "longitude": -87.6324463, "city": "Chicago", "label": "Chicago", "yr1970": 7.11, "yr1975": 7.16, "yr1980": 7.22}, {"id": 26, "latitude": 22.5562191, "longitude": 114.1187897, "city": "Shenzhen", "label": "Shenzhen", "yr1970": 0.0, "yr1975": 0.0, "yr1980": 0.0}, {"id": 27, "latitude": -12.0561399, "longitude": -77.0268021, "city": "Lima", "label": "Lima", "yr1970": 0.0, "yr1975": 3.7, "yr1980": 4.44}, {"id": 28, "latitude": 23.1133709, "longitude": 113.2552338, "city": "Guangzhou", "label": "Guangzhou", "yr1970": 0.0, "yr1975": 0.0, "yr1980": 0.0}, {"id": 29, "latitude": -4.3122201, "longitude": 15.2895298, "city": "Kinshasa", "label": "Kinshasa", "yr1970": 0.0, "yr1975": 0.0, "yr1980": 0.0}, {"id": 30, "latitude": 51.5064316, "longitude": -0.12719, "city": "London", "label": "London", "yr1970": 7.51, "yr1975": 7.55, "yr1980": 7.66}, {"id": 31, "latitude": 39.1449394, "longitude": 117.2005692, "city": "Tianjin", "label": "Tianjin", "yr1970": 3.32, "yr1975": 0.0, "yr1980": 0.0}, {"id": 32, "latitude": 22.3361568, "longitude": 114.1869659, "city": "Hong_Kong", "label": "Hong Kong", "yr1970": 3.46, "yr1975": 3.94, "yr1980": 4.61}, {"id": 33, "latitude": 35.6895409, "longitude": 51.4146843, "city": "Tehran", "label": "Tehran", "yr1970": 3.29, "yr1975": 4.27, "yr1980": 5.08}, {"id": 34, "latitude": 13.0503302, "longitude": 80.188591, "city": "Chennai", "label": "Chennai", "yr1970": 0.0, "yr1975": 0.0, "yr1980": 0.0}, {"id": 35, "latitude": 13.7533503, "longitude": 100.5048294, "city": "Bangkok", "label": "Bangkok", "yr1970": 0.0, "yr1975": 3.84, "yr1980": 4.72}, {"id": 36, "latitude": 59.9331818, "longitude": 30.3060303, "city": "Saint_Petersburg", "label": "St. Petersburg", "yr1970": 3.98, "yr1975": 4.33, "yr1980": 4.64}, {"id": 37, "latitude": 40.4514008, "longitude": -3.5631499, "city": "Madrid", "label": "Madrid", "yr1970": 3.52, "yr1975": 3.89, "yr1980": 4.25}, {"id": 38, "latitude": 39.9522781, "longitude": -75.1624527, "city": "Philadelphia", "label": "Philadelphia", "yr1970": 4.4, "yr1975": 4.47, "yr1980": 4.54}, {"id": 39, "latitude": 42.3316803, "longitude": -83.0479202, "city": "Detroit", "label": "Detroit", "yr1970": 3.97, "yr1975": 3.89, "yr1980": 0.0}]